{
"type" : "FeatureCollection",
"features": [
{"type": "Feature", "geometry": {"type": "Point","coordinates": [18.662809 ,54.403565]  },"name": "Stacje paliw Orlen", "city": "Gdańsk"}
{"type": "Feature", "geometry":  {"type": "Point","coordinates": [19.11751, 54.32629] }, "name": "Stacje paliw Orlen",  "city": "Stegna"}
{"type": "Feature", "geometry": {"type": "Point","coordinates": [19.10635, 54.21281] }, "name": "Stacje paliw Orlen", "city": "Nowy Dwór Gdański"}
{"type": "Feature", "geometry": {
    "type": "Point",
    "coordinates": [
      19.37732,
      54.16554
    ]
  },
  "name": "Stacje paliw Orlen",
  "city": "Elbląg"
}
{"type": "Feature", "geometry":  {
    "type": "Point",
    "coordinates": [
      19.01104,
      54.03809
    ]
  },
  "name": "Stacje paliw Orlen",
  "city": "Malbork"
}
{"type": "Feature", "geometry": {
    "type": "Point",
    "coordinates": [
      18.79051,
      54.08686
    ]
  },
  "name": "Stacje paliw Orlen",
  "city": "Tczew"
}
{"type": "Feature", "geometry": {
    "type": "Point",
    "coordinates": [
      18.777407,
      54.074322
    ]
  },
  "name": "Stacje paliw Orlen",
  "city": "Tczew"
}
{"type": "Feature", "geometry": {
    "type": "Point",
    "coordinates": [
      18.68576,
      54.17877
    ]
  },
  "name": "Stacje paliw Orlen",
  "city": "Pszczółki"
}
{"type": "Feature", "geometry": {
    "type": "Point",
    "coordinates": [
      18.791383,
      54.291775
    ]
  },
  "name": "Stacje paliw Orlen",
  "city": "Koszwały"
}
{"type": "Feature", "geometry": {
    "type": "Point",
    "coordinates": [
      18.68251,
      54.34847
    ]
  },
  "name": "Stacje paliw Orlen",
  "city": "Gdańsk"
}
{"type": "Feature", "geometry": {
    "type": "Point",
    "coordinates": [
      18.6406,
      54.35916
    ]
  },
  "name": "Stacje paliw Orlen",
  "city": "Gdańsk"
}
{"type": "Feature", "geometry":  {
    "type": "Point",
    "coordinates": [
      18.63553,
      54.3334
    ]
  },
  "name": "Stacje paliw Orlen",
  "city": "Gdańsk"
}
{"type": "Feature", "geometry": {
    "type": "Point",
    "coordinates": [
      18.6079,
      54.32619
    ]
  },
  "name": "Stacje paliw Orlen",
  "city": "Gdańsk"
}
{"type": "Feature", "geometry":  {
    "type": "Point",
    "coordinates": [
      18.57977,
      54.39451
    ]
  },
  "name": "Stacje paliw Orlen",
  "city": "Gdańsk"
}
{"type": "Feature", "geometry": {
    "type": "Point",
    "coordinates": [
      18.52994,
      54.17554
    ]
  },
  "name": "Stacje paliw Orlen",
  "city": "Trąbki Wielkie"
}
{"type": "Feature", "geometry":  {
    "type": "Point",
    "coordinates": [
      18.2035,
      54.24043
    ]
  },
  "name": "Stacje paliw Orlen",
  "city": "Egiertowo"
}
{"type": "Feature", "geometry":  {
    "type": "Point",
    "coordinates": [
      18.19589,
      54.32905
    ]
  },
  "name": "Stacje paliw Orlen",
  "city": "Kartuzy"
}
{"type": "Feature", "geometry": {
    "type": "Point",
    "coordinates": [
      18.2054,
      54.33015
    ]
  },
  "name": "Stacje paliw Orlen",
  "city": "Kartuzy"
}
{"type": "Feature", "geometry":  {
    "type": "Point",
    "coordinates": [
      18.36004,
      54.34226
    ]
  },
  "name": "Stacje paliw Orlen",
  "city": "Żukowo"
}
{"type": "Feature", "geometry": {
    "type": "Point",
    "coordinates": [
      18.477135,
      54.380675
    ]
  },
  "name": "Stacje paliw Orlen",
  "city": "Gdańsk"
}
{"type": "Feature", "geometry":  {
    "type": "Point",
    "coordinates": [
      18.45373,
      54.54153
    ]
  },
  "name": "Stacje paliw Orlen",
  "city": "Gdynia"
}
{"type": "Feature", "geometry":  {
    "type": "Point",
    "coordinates": [
      18.42551,
      54.55045
    ]
  },
  "name": "Stacje paliw Orlen",
  "city": "Gdynia"
}
{"type": "Feature", "geometry":  {
    "type": "Point",
    "coordinates": [
      18.42266,
      54.56018
    ]
  },
  "name": "Stacje paliw Orlen",
  "city": "Rumia"
}
{"type": "Feature", "geometry":  {
    "type": "Point",
    "coordinates": [
      18.37933,
      54.57634
    ]
  },
  "name": "Stacje paliw Orlen",
  "city": "Rumia"
}
{"type": "Feature", "geometry":  {
    "type": "Point",
    "coordinates": [
      18.5335,
      54.51339
    ]
  },
  "name": "Stacje paliw Orlen",
  "city": "Gdynia"
}
{"type": "Feature", "geometry":  {
    "type": "Point",
    "coordinates": [
      18.40589,
      54.71592
    ]
  },
  "name": "Stacje paliw Orlen",
  "city": "Puck"
}
{"type": "Feature", "geometry": {
    "type": "Point",
    "coordinates": [
      18.4054,
      54.77592
    ]
  },
  "name": "Stacje paliw Orlen",
  "city": "Władysławowo"
}
{"type": "Feature", "geometry": {
    "type": "Point",
    "coordinates": [
      18.18959,
      54.61076
    ]
  },
  "name": "Stacje paliw Orlen",
  "city": "Wejherowo"
}
{"type": "Feature", "geometry":  {
    "type": "Point",
    "coordinates": [
      18.27235,
      54.60235
    ]
  },
  "name": "Stacje paliw Orlen",
  "city": "Wejherowo"
}
{"type": "Feature", "geometry":  {
    "type": "Point",
    "coordinates": [
      17.79721,
      54.55172
    ]
  },
  "name": "Stacje paliw Orlen",
  "city": "Lębork"
}
{"type": "Feature", "geometry": {
    "type": "Point",
    "coordinates": [
      18.1183,
      54.78674
    ]
  },
  "name": "Stacje paliw Orlen",
  "city": "Odargowo"
}
{"type": "Feature", "geometry":  {
    "type": "Point",
    "coordinates": [
      17.74315,
      54.53233
    ]
  },
  "name": "Stacje paliw Orlen",
  "city": "Lębork"
}
{"type": "Feature", "geometry": {
    "type": "Point",
    "coordinates": [
      17.889182,
      54.350071
    ]
  },
  "name": "Stacje paliw Orlen",
  "city": "Sierakowice"
}
{"type": "Feature", "geometry":  {
    "type": "Point",
    "coordinates": [
      17.04061,
      54.46524
    ]
  },
  "name": "Stacje paliw Orlen",
  "city": "Słupsk"
}
{"type": "Feature", "geometry":  {
    "type": "Point",
    "coordinates": [
      17.02624,
      54.47686
    ]
  },
  "name": "Stacje paliw Orlen",
  "city": "Słupsk"
}
{"type": "Feature", "geometry": {
    "type": "Point",
    "coordinates": [
      16.96817,
      54.45112
    ]
  },
  "name": "Stacje paliw Orlen",
  "city": "Kobylnica"
}
{"type": "Feature", "geometry":  {
    "type": "Point",
    "coordinates": [
      16.99288,
      54.45748
    ]
  },
  "name": "Stacje paliw Orlen",
  "city": "Słupsk"
}
{"type": "Feature", "geometry":  {
    "type": "Point",
    "coordinates": [
      16.86227,
      54.58068
    ]
  },
  "name": "Stacje paliw Orlen",
  "city": "Ustka"
}
{"type": "Feature", "geometry": {
    "type": "Point",
    "coordinates": [
      17.36308,
      54.61265
    ]
  },
  "name": "Stacje paliw Orlen",
  "city": "Główczyce"
}
{"type": "Feature", "geometry":  {
    "type": "Point",
    "coordinates": [
      17.55784,
      54.75084
    ]
  },
  "name": "Stacje paliw Orlen",
  "city": "Łeba"
}
{"type": "Feature", "geometry": {
    "type": "Point",
    "coordinates": [
      16.74097,
      53.71747
    ]
  },
  "name": "Stacje paliw Orlen",
  "city": "Marcelin"
}
{"type": "Feature", "geometry": {
    "type": "Point",
    "coordinates": [
      16.83994,
      53.9016
    ]
  },
  "name": "Stacje paliw Orlen",
  "city": "Biały Bór"
}
{"type": "Feature", "geometry":  {
    "type": "Point",
    "coordinates": [
      17.48575,
      54.18691
    ]
  },
  "name": "Stacje paliw Orlen",
  "city": "Bytów"
}
{"type": "Feature", "geometry":  {
    "type": "Point",
    "coordinates": [
      17.49779,
      54.18072
    ]
  },
  "name": "Stacje paliw Orlen",
  "city": "Bytów"
}
{"type": "Feature", "geometry": {
    "type": "Point",
    "coordinates": [
      17.3449,
      53.6584
    ]
  },
  "name": "Stacje paliw Orlen",
  "city": "Człuchów"
}
{"type": "Feature", "geometry":  {
    "type": "Point",
    "coordinates": [
      17.584011,
      53.697866
    ]
  },
  "name": "Stacje paliw Orlen",
  "city": "Chojnice"
}
{"type": "Feature", "geometry":  {
    "type": "Point",
    "coordinates": [
      17.579268,
      53.707971
    ]
  },
  "name": "Stacje paliw Orlen",
  "city": "Chojnice"
}
{"type": "Feature", "geometry":  {
    "type": "Point",
    "coordinates": [
      17.84305,
      53.59601
    ]
  },
  "name": "Stacje paliw Orlen",
  "city": "Tuchola"
}
{"type": "Feature", "geometry": {
    "type": "Point",
    "coordinates": [
      17.98313,
      53.797
    ]
  },
  "name": "Stacje paliw Orlen",
  "city": "Czersk"
}
{"type": "Feature", "geometry":  {
    "type": "Point",
    "coordinates": [
      17.71543,
      53.88003
    ]
  },
  "name": "Stacje paliw Orlen",
  "city": "Brusy"
}
{"type": "Feature", "geometry":  {
    "type": "Point",
    "coordinates": [
      17.96404,
      54.11651
    ]
  },
  "name": "Stacje paliw Orlen",
  "city": "Kościerzyna"
}
{"type": "Feature", "geometry": {
    "type": "Point",
    "coordinates": [
      18.31618,
      53.92955
    ]
  },
  "name": "Stacje paliw Orlen",
  "city": "Zblewo"
}
{"type": "Feature", "geometry": {
    "type": "Point",
    "coordinates": [
      18.51451,
      53.791886
    ]
  },
  "name": "Stacje paliw Orlen",
  "city": "Skórcz"
}
{"type": "Feature", "geometry": {
    "type": "Point",
    "coordinates": [
      18.540909,
      53.958207
    ]
  },
  "name": "Stacje paliw Orlen",
  "city": "Starogard Gdański"
}
{"type": "Feature", "geometry":  {
    "type": "Point",
    "coordinates": [
      18.5441,
      53.9705
    ]
  },
  "name": "Stacje paliw Orlen",
  "city": "Starogard Gdański"
}
{"type": "Feature", "geometry": {
    "type": "Point",
    "coordinates": [
      18.81892,
      53.83276
    ]
  },
  "name": "Stacje paliw Orlen",
  "city": "Gniew"
}
{"type": "Feature", "geometry": {
    "type": "Point",
    "coordinates": [
      19.04468,
      53.9144
    ]
  },
  "name": "Stacje paliw Orlen",
  "city": "Sztum"
}
{"type": "Feature", "geometry":  {
    "type": "Point",
    "coordinates": [
      18.94309,
      53.71649
    ]
  },
  "name": "Stacje paliw Orlen",
  "city": "Kwidzyn"
}
{"type": "Feature", "geometry":  {
    "type": "Point",
    "coordinates": [
      18.7252,
      53.6445
    ]
  },
  "name": "Stacje paliw Orlen",
  "city": "Nowe"
}
{"type": "Feature", "geometry":  {
    "type": "Point",
    "coordinates": [
      19.209648,
      53.754585
    ]
  },
  "name": "Stacje paliw Orlen",
  "city": "Prabuty"
}
]
}
